{
  "features": [
    {
      "type": "Feature",
      "properties": {
        "id": 1,
        "osm_id": 245612139,
        "name": "Sarjapura",
        "type": "town",
        "z_order": 6,
        "population": null
      },
      "geometry": {
        "type": "Point",
        "coordinates": [
          77.78613517547016,
          12.860086531186111
        ]
      }
    },
    {
      "type": "Feature",
      "properties": {
        "id": 2,
        "osm_id": 305154494,
        "name": null,
        "type": "locality",
        "z_order": 1,
        "population": null
      },
      "geometry": {
        "type": "Point",
        "coordinates": [
          77.57840102088392,
          12.910959570488387
        ]
      }
    },
    {
      "type": "Feature",
      "properties": {
        "id": 3,
        "osm_id": 308715244,
        "name": "Vidyaranyapura",
        "type": "suburb",
        "z_order": 3,
        "population": null
      },
      "geometry": {
        "type": "Point",
        "coordinates": [
          77.5577314991151,
          13.076640627205734
        ]
      }
    },
    {
      "type": "Feature",
      "properties": {
        "id": 4,
        "osm_id": 313267749,
        "name": "Bidadi",
        "type": "town",
        "z_order": 6,
        "population": null
      },
      "geometry": {
        "type": "Point",
        "coordinates": [
          77.38699464604156,
          12.798850693533296
        ]
      }
    },
    {
      "type": "Feature",
      "properties": {
        "id": 5,
        "osm_id": 316417066,
        "name": "Bangalore Urban",
        "type": "county",
        "z_order": 8,
        "population": null
      },
      "geometry": {
        "type": "Point",
        "coordinates": [
          77.58333293271119,
          12.99999994116743
        ]
      }
    },
    {
      "type": "Feature",
      "properties": {
        "id": 6,
        "osm_id": 338162934,
        "name": "Kannuru",
        "type": "village",
        "z_order": 5,
        "population": null
      },
      "geometry": {
        "type": "Point",
        "coordinates": [
          77.65394267177811,
          13.092309589360239
        ]
      }
    },
    {
      "type": "Feature",
      "properties": {
        "id": 7,
        "osm_id": 347261886,
        "name": "Domlur",
        "type": "suburb",
        "z_order": 3,
        "population": null
      },
      "geometry": {
        "type": "Point",
        "coordinates": [
          77.63819575792405,
          12.962466868403821
        ]
      }
    },
    {
      "type": "Feature",
      "properties": {
        "id": 8,
        "osm_id": 347262164,
        "name": "Kodihalli",
        "type": "suburb",
        "z_order": 3,
        "population": null
      },
      "geometry": {
        "type": "Point",
        "coordinates": [
          77.64637716597366,
          12.962448092940718
        ]
      }
    },
    {
      "type": "Feature",
      "properties": {
        "id": 9,
        "osm_id": 391881071,
        "name": "Sri Ramapura",
        "type": "hamlet",
        "z_order": 4,
        "population": null
      },
      "geometry": {
        "type": "Point",
        "coordinates": [
          77.61968147491831,
          13.066029389245159
        ]
      }
    },
    {
      "type": "Feature",
      "properties": {
        "id": 10,
        "osm_id": 410861186,
        "name": "Hegdenagara",
        "type": "village",
        "z_order": 5,
        "population": null
      },
      "geometry": {
        "type": "Point",
        "coordinates": [
          77.63416825344922,
          13.072069137214894
        ]
      }
    },
    {
      "type": "Feature",
      "properties": {
        "id": 11,
        "osm_id": 410861196,
        "name": "Shabarinagara",
        "type": "village",
        "z_order": 5,
        "population": null
      },
      "geometry": {
        "type": "Point",
        "coordinates": [
          77.6379401936963,
          13.071362123682206
        ]
      }
    },
    {
      "type": "Feature",
      "properties": {
        "id": 12,
        "osm_id": 377219489,
        "name": "Whitefield",
        "type": "town",
        "z_order": 6,
        "population": null
      },
      "geometry": {
        "type": "Point",
        "coordinates": [
          77.7497447237472,
          12.969636496921368
        ]
      }
    },
    {
      "type": "Feature",
      "properties": {
        "id": 13,
        "osm_id": 378717492,
        "name": "Brookefields",
        "type": "suburb",
        "z_order": 3,
        "population": null
      },
      "geometry": {
        "type": "Point",
        "coordinates": [
          77.71793598793693,
          12.965209343303172
        ]
      }
    },
    {
      "type": "Feature",
      "properties": {
        "id": 14,
        "osm_id": 419795521,
        "name": "Bilishivale",
        "type": "village",
        "z_order": 5,
        "population": null
      },
      "geometry": {
        "type": "Point",
        "coordinates": [
          77.67102239205576,
          13.054330599347821
        ]
      }
    },
    {
      "type": "Feature",
      "properties": {
        "id": 15,
        "osm_id": 410865952,
        "name": "Honnenahalli",
        "type": "village",
        "z_order": 5,
        "population": null
      },
      "geometry": {
        "type": "Point",
        "coordinates": [
          77.56645915579452,
          13.159863454168146
        ]
      }
    },
    {
      "type": "Feature",
      "properties": {
        "id": 16,
        "osm_id": 410865953,
        "name": "Rajanakunte",
        "type": "village",
        "z_order": 5,
        "population": null
      },
      "geometry": {
        "type": "Point",
        "coordinates": [
          77.56394416574733,
          13.169190081648336
        ]
      }
    },
    {
      "type": "Feature",
      "properties": {
        "id": 17,
        "osm_id": 411430090,
        "name": "Kothanur",
        "type": "village",
        "z_order": 5,
        "population": null
      },
      "geometry": {
        "type": "Point",
        "coordinates": [
          77.64938945433617,
          13.061360082444281
        ]
      }
    },
    {
      "type": "Feature",
      "properties": {
        "id": 18,
        "osm_id": 412647768,
        "name": "Geddalahalli",
        "type": "village",
        "z_order": 5,
        "population": null
      },
      "geometry": {
        "type": "Point",
        "coordinates": [
          77.64466876646884,
          13.048634257951106
        ]
      }
    },
    {
      "type": "Feature",
      "properties": {
        "id": 19,
        "osm_id": 412957374,
        "name": "Hennur",
        "type": "suburb",
        "z_order": 3,
        "population": null
      },
      "geometry": {
        "type": "Point",
        "coordinates": [
          77.63050661904788,
          13.025808659229
        ]
      }
    },
    {
      "type": "Feature",
      "properties": {
        "id": 20,
        "osm_id": 427531067,
        "name": "Seshadripuram",
        "type": "suburb",
        "z_order": 3,
        "population": null
      },
      "geometry": {
        "type": "Point",
        "coordinates": [
          77.57534187768266,
          12.993187549363142
        ]
      }
    },
    {
      "type": "Feature",
      "properties": {
        "id": 21,
        "osm_id": 427595936,
        "name": "Malleswaram",
        "type": "suburb",
        "z_order": 3,
        "population": null
      },
      "geometry": {
        "type": "Point",
        "coordinates": [
          77.57032522481427,
          13.002735291449056
        ]
      }
    },
    {
      "type": "Feature",
      "properties": {
        "id": 22,
        "osm_id": 428464052,
        "name": "Sampangirama Nagar",
        "type": "neighbourhood",
        "z_order": 2,
        "population": null
      },
      "geometry": {
        "type": "Point",
        "coordinates": [
          77.59226083305741,
          12.966455480847998
        ]
      }
    },
    {
      "type": "Feature",
      "properties": {
        "id": 23,
        "osm_id": 428464054,
        "name": "Shanti Nagar",
        "type": "suburb",
        "z_order": 3,
        "population": null
      },
      "geometry": {
        "type": "Point",
        "coordinates": [
          77.59790981670119,
          12.957554654049005
        ]
      }
    },
    {
      "type": "Feature",
      "properties": {
        "id": 24,
        "osm_id": 429303186,
        "name": "Shivajinagar",
        "type": "suburb",
        "z_order": 3,
        "population": null
      },
      "geometry": {
        "type": "Point",
        "coordinates": [
          77.60754154545691,
          12.986390999355876
        ]
      }
    },
    {
      "type": "Feature",
      "properties": {
        "id": 25,
        "osm_id": 429697299,
        "name": "Gandhinagar",
        "type": "suburb",
        "z_order": 3,
        "population": null
      },
      "geometry": {
        "type": "Point",
        "coordinates": [
          77.5784004341507,
          12.977153387687366
        ]
      }
    },
    {
      "type": "Feature",
      "properties": {
        "id": 26,
        "osm_id": 419800580,
        "name": "Dodda Gubbi",
        "type": "village",
        "z_order": 5,
        "population": null
      },
      "geometry": {
        "type": "Point",
        "coordinates": [
          77.67317712790452,
          13.071203789531268
        ]
      }
    },
    {
      "type": "Feature",
      "properties": {
        "id": 27,
        "osm_id": 420076871,
        "name": "Kyalasanahalli",
        "type": "village",
        "z_order": 5,
        "population": null
      },
      "geometry": {
        "type": "Point",
        "coordinates": [
          77.65913207567087,
          13.05645742345908
        ]
      }
    },
    {
      "type": "Feature",
      "properties": {
        "id": 28,
        "osm_id": 420080581,
        "name": "Anagalapura",
        "type": "village",
        "z_order": 5,
        "population": null
      },
      "geometry": {
        "type": "Point",
        "coordinates": [
          77.6821871709019,
          13.068758872194593
        ]
      }
    },
    {
      "type": "Feature",
      "properties": {
        "id": 29,
        "osm_id": 420082930,
        "name": "Bande Bommasandra",
        "type": "village",
        "z_order": 5,
        "population": null
      },
      "geometry": {
        "type": "Point",
        "coordinates": [
          77.68097875192136,
          13.076557562545275
        ]
      }
    },
    {
      "type": "Feature",
      "properties": {
        "id": 30,
        "osm_id": 420087906,
        "name": "Chikkabyrathi",
        "type": "village",
        "z_order": 5,
        "population": null
      },
      "geometry": {
        "type": "Point",
        "coordinates": [
          77.64950302912415,
          13.055321340302925
        ]
      }
    },
    {
      "type": "Feature",
      "properties": {
        "id": 31,
        "osm_id": 420088225,
        "name": "Bhairati",
        "type": "village",
        "z_order": 5,
        "population": null
      },
      "geometry": {
        "type": "Point",
        "coordinates": [
          77.65209923981314,
          13.05635281730747
        ]
      }
    },
    {
      "type": "Feature",
      "properties": {
        "id": 32,
        "osm_id": 429921852,
        "name": "Austin Town",
        "type": "suburb",
        "z_order": 3,
        "population": null
      },
      "geometry": {
        "type": "Point",
        "coordinates": [
          77.61529346478795,
          12.961273536849035
        ]
      }
    },
    {
      "type": "Feature",
      "properties": {
        "id": 33,
        "osm_id": 429921853,
        "name": "Ashok Nagar",
        "type": "suburb",
        "z_order": 3,
        "population": null
      },
      "geometry": {
        "type": "Point",
        "coordinates": [
          77.60923184005088,
          12.969435834159384
        ]
      }
    },
    {
      "type": "Feature",
      "properties": {
        "id": 34,
        "osm_id": 429921854,
        "name": "Vivek Nagar",
        "type": "neighbourhood",
        "z_order": 2,
        "population": null
      },
      "geometry": {
        "type": "Point",
        "coordinates": [
          77.62313733359673,
          12.952924658374002
        ]
      }
    },
    {
      "type": "Feature",
      "properties": {
        "id": 35,
        "osm_id": 429921855,
        "name": "Ejipura",
        "type": "suburb",
        "z_order": 3,
        "population": null
      },
      "geometry": {
        "type": "Point",
        "coordinates": [
          77.6269143868048,
          12.945244991048382
        ]
      }
    },
    {
      "type": "Feature",
      "properties": {
        "id": 36,
        "osm_id": 429921856,
        "name": "Cubbonpet",
        "type": "neighbourhood",
        "z_order": 2,
        "population": null
      },
      "geometry": {
        "type": "Point",
        "coordinates": [
          77.58522858393292,
          12.968499072660705
        ]
      }
    },
    {
      "type": "Feature",
      "properties": {
        "id": 37,
        "osm_id": 429921857,
        "name": "Old Tharagupet",
        "type": "neighbourhood",
        "z_order": 2,
        "population": null
      },
      "geometry": {
        "type": "Point",
        "coordinates": [
          77.5766269910772,
          12.967814941723702
        ]
      }
    },
    {
      "type": "Feature",
      "properties": {
        "id": 38,
        "osm_id": 429921858,
        "name": "Sowrashtrapet",
        "type": "locality",
        "z_order": 1,
        "population": null
      },
      "geometry": {
        "type": "Point",
        "coordinates": [
          77.57352392670333,
          12.972576281821404
        ]
      }
    },
    {
      "type": "Feature",
      "properties": {
        "id": 39,
        "osm_id": 429921859,
        "name": "Sultanpet",
        "type": "neighbourhood",
        "z_order": 2,
        "population": null
      },
      "geometry": {
        "type": "Point",
        "coordinates": [
          77.5738752960844,
          12.969937826340441
        ]
      }
    },
    {
      "type": "Feature",
      "properties": {
        "id": 40,
        "osm_id": 429921860,
        "name": "Ranasingpet",
        "type": "neighbourhood",
        "z_order": 2,
        "population": null
      },
      "geometry": {
        "type": "Point",
        "coordinates": [
          77.57245875444806,
          12.967544122432171
        ]
      }
    },
    {
      "type": "Feature",
      "properties": {
        "id": 41,
        "osm_id": 429921862,
        "name": "Chickpet",
        "type": "suburb",
        "z_order": 3,
        "population": null
      },
      "geometry": {
        "type": "Point",
        "coordinates": [
          77.57753005732513,
          12.970139159654677
        ]
      }
    },
    {
      "type": "Feature",
      "properties": {
        "id": 42,
        "osm_id": 429921863,
        "name": "Balepet",
        "type": "neighbourhood",
        "z_order": 2,
        "population": null
      },
      "geometry": {
        "type": "Point",
        "coordinates": [
          77.57593229894218,
          12.973117752766427
        ]
      }
    },
    {
      "type": "Feature",
      "properties": {
        "id": 43,
        "osm_id": 429921864,
        "name": "Kalasipalya",
        "type": "suburb",
        "z_order": 3,
        "population": null
      },
      "geometry": {
        "type": "Point",
        "coordinates": [
          77.57681474570829,
          12.958188996481168
        ]
      }
    },
    {
      "type": "Feature",
      "properties": {
        "id": 44,
        "osm_id": 429937955,
        "name": "Marenahalli",
        "type": "suburb",
        "z_order": 3,
        "population": null
      },
      "geometry": {
        "type": "Point",
        "coordinates": [
          77.59166504737988,
          12.918259369962215
        ]
      }
    },
    {
      "type": "Feature",
      "properties": {
        "id": 45,
        "osm_id": 429937956,
        "name": "Basavanagudi",
        "type": "suburb",
        "z_order": 3,
        "population": null
      },
      "geometry": {
        "type": "Point",
        "coordinates": [
          77.57550205585233,
          12.941726016639052
        ]
      }
    },
    {
      "type": "Feature",
      "properties": {
        "id": 46,
        "osm_id": 430043564,
        "name": "Benson Town",
        "type": "suburb",
        "z_order": 3,
        "population": null
      },
      "geometry": {
        "type": "Point",
        "coordinates": [
          77.60417487022823,
          12.997802960526599
        ]
      }
    },
    {
      "type": "Feature",
      "properties": {
        "id": 47,
        "osm_id": 430043651,
        "name": "Rabindranath Tagore Nagar",
        "type": "suburb",
        "z_order": 3,
        "population": null
      },
      "geometry": {
        "type": "Point",
        "coordinates": [
          77.59571493153618,
          13.022720347004705
        ]
      }
    },
    {
      "type": "Feature",
      "properties": {
        "id": 48,
        "osm_id": 430043772,
        "name": "Ganga Nagar",
        "type": "suburb",
        "z_order": 3,
        "population": null
      },
      "geometry": {
        "type": "Point",
        "coordinates": [
          77.58835687783534,
          13.02324706580012
        ]
      }
    },
    {
      "type": "Feature",
      "properties": {
        "id": 49,
        "osm_id": 430051517,
        "name": "Frazer Town",
        "type": "suburb",
        "z_order": 3,
        "population": null
      },
      "geometry": {
        "type": "Point",
        "coordinates": [
          77.6130164369718,
          12.996844992812896
        ]
      }
    },
    {
      "type": "Feature",
      "properties": {
        "id": 50,
        "osm_id": 430051518,
        "name": "Cox Town",
        "type": "suburb",
        "z_order": 3,
        "population": null
      },
      "geometry": {
        "type": "Point",
        "coordinates": [
          77.62086835240768,
          12.995483185004304
        ]
      }
    },
    {
      "type": "Feature",
      "properties": {
        "id": 51,
        "osm_id": 430051519,
        "name": "Richards Town",
        "type": "neighbourhood",
        "z_order": 2,
        "population": null
      },
      "geometry": {
        "type": "Point",
        "coordinates": [
          77.61580476088153,
          13.004215954644678
        ]
      }
    },
    {
      "type": "Feature",
      "properties": {
        "id": 52,
        "osm_id": 430143744,
        "name": "Yelahanka",
        "type": "suburb",
        "z_order": 3,
        "population": null
      },
      "geometry": {
        "type": "Point",
        "coordinates": [
          77.59634533447388,
          13.100698198056278
        ]
      }
    },
    {
      "type": "Feature",
      "properties": {
        "id": 53,
        "osm_id": 431530915,
        "name": "Mathikere",
        "type": "suburb",
        "z_order": 3,
        "population": null
      },
      "geometry": {
        "type": "Point",
        "coordinates": [
          77.5573739271257,
          13.032888349925457
        ]
      }
    },
    {
      "type": "Feature",
      "properties": {
        "id": 54,
        "osm_id": 433747869,
        "name": "BEL Colony",
        "type": "neighbourhood",
        "z_order": 2,
        "population": null
      },
      "geometry": {
        "type": "Point",
        "coordinates": [
          77.55390516031639,
          13.047070027180865
        ]
      }
    },
    {
      "type": "Feature",
      "properties": {
        "id": 55,
        "osm_id": 433748247,
        "name": "Jalahalli",
        "type": "suburb",
        "z_order": 3,
        "population": null
      },
      "geometry": {
        "type": "Point",
        "coordinates": [
          77.54838022883956,
          13.046453035288266
        ]
      }
    },
    {
      "type": "Feature",
      "properties": {
        "id": 56,
        "osm_id": 440668802,
        "name": "Ramapura",
        "type": "village",
        "z_order": 5,
        "population": null
      },
      "geometry": {
        "type": "Point",
        "coordinates": [
          77.69128405041613,
          13.052448945904388
        ]
      }
    },
    {
      "type": "Feature",
      "properties": {
        "id": 57,
        "osm_id": 440670278,
        "name": "Devradju Adur",
        "type": "village",
        "z_order": 5,
        "population": null
      },
      "geometry": {
        "type": "Point",
        "coordinates": [
          77.70514268912319,
          13.055935649986509
        ]
      }
    },
    {
      "type": "Feature",
      "properties": {
        "id": 58,
        "osm_id": 440670333,
        "name": "Hirandahalli",
        "type": "village",
        "z_order": 5,
        "population": null
      },
      "geometry": {
        "type": "Point",
        "coordinates": [
          77.72278106324734,
          13.046808427982825
        ]
      }
    },
    {
      "type": "Feature",
      "properties": {
        "id": 59,
        "osm_id": 440670334,
        "name": "Bidarahalli",
        "type": "village",
        "z_order": 5,
        "population": null
      },
      "geometry": {
        "type": "Point",
        "coordinates": [
          77.71560556739756,
          13.060554497730294
        ]
      }
    },
    {
      "type": "Feature",
      "properties": {
        "id": 60,
        "osm_id": 440673983,
        "name": "Gundur",
        "type": "village",
        "z_order": 5,
        "population": null
      },
      "geometry": {
        "type": "Point",
        "coordinates": [
          77.7141891933993,
          13.086895299005304
        ]
      }
    },
    {
      "type": "Feature",
      "properties": {
        "id": 61,
        "osm_id": 440675871,
        "name": "Chimasandra",
        "type": "village",
        "z_order": 5,
        "population": null
      },
      "geometry": {
        "type": "Point",
        "coordinates": [
          77.73891639449442,
          13.047861865573651
        ]
      }
    },
    {
      "type": "Feature",
      "properties": {
        "id": 62,
        "osm_id": 440676245,
        "name": "Avalahalli",
        "type": "village",
        "z_order": 5,
        "population": null
      },
      "geometry": {
        "type": "Point",
        "coordinates": [
          77.7365654382923,
          13.035277695244105
        ]
      }
    },
    {
      "type": "Feature",
      "properties": {
        "id": 63,
        "osm_id": 440680091,
        "name": "Kalkere",
        "type": "village",
        "z_order": 5,
        "population": null
      },
      "geometry": {
        "type": "Point",
        "coordinates": [
          77.67380786611834,
          13.035089689155939
        ]
      }
    },
    {
      "type": "Feature",
      "properties": {
        "id": 64,
        "osm_id": 440684547,
        "name": "Jayantinagara",
        "type": "suburb",
        "z_order": 3,
        "population": null
      },
      "geometry": {
        "type": "Point",
        "coordinates": [
          77.66593725903839,
          13.027639099244027
        ]
      }
    },
    {
      "type": "Feature",
      "properties": {
        "id": 65,
        "osm_id": 440691901,
        "name": "Byappanahalli",
        "type": "village",
        "z_order": 5,
        "population": null
      },
      "geometry": {
        "type": "Point",
        "coordinates": [
          77.72001637630461,
          13.0721256312423
        ]
      }
    },
    {
      "type": "Feature",
      "properties": {
        "id": 66,
        "osm_id": 442068273,
        "name": "Marathahalli",
        "type": "suburb",
        "z_order": 3,
        "population": null
      },
      "geometry": {
        "type": "Point",
        "coordinates": [
          77.69841629564547,
          12.955257174389146
        ]
      }
    },
    {
      "type": "Feature",
      "properties": {
        "id": 67,
        "osm_id": 442068820,
        "name": "Ashwath Nagar",
        "type": "neighbourhood",
        "z_order": 2,
        "population": null
      },
      "geometry": {
        "type": "Point",
        "coordinates": [
          77.70312424302,
          12.958255464973348
        ]
      }
    },
    {
      "type": "Feature",
      "properties": {
        "id": 68,
        "osm_id": 442068822,
        "name": "Hemanth Nagar",
        "type": "locality",
        "z_order": 1,
        "population": null
      },
      "geometry": {
        "type": "Point",
        "coordinates": [
          77.70222704410429,
          12.960876989009876
        ]
      }
    },
    {
      "type": "Feature",
      "properties": {
        "id": 69,
        "osm_id": 442068826,
        "name": "Ananda Nagara",
        "type": "neighbourhood",
        "z_order": 2,
        "population": null
      },
      "geometry": {
        "type": "Point",
        "coordinates": [
          77.70053054690197,
          12.961037083360509
        ]
      }
    },
    {
      "type": "Feature",
      "properties": {
        "id": 70,
        "osm_id": 442075234,
        "name": "Doddanekundi",
        "type": "suburb",
        "z_order": 3,
        "population": null
      },
      "geometry": {
        "type": "Point",
        "coordinates": [
          77.69647672325111,
          12.971319331621515
        ]
      }
    },
    {
      "type": "Feature",
      "properties": {
        "id": 71,
        "osm_id": 442134548,
        "name": "Krishnarajapuram",
        "type": "suburb",
        "z_order": 3,
        "population": null
      },
      "geometry": {
        "type": "Point",
        "coordinates": [
          77.69593491703,
          13.007515993743112
        ]
      }
    },
    {
      "type": "Feature",
      "properties": {
        "id": 72,
        "osm_id": 442438416,
        "name": "ITI Colony",
        "type": "suburb",
        "z_order": 3,
        "population": null
      },
      "geometry": {
        "type": "Point",
        "coordinates": [
          77.68706032558794,
          13.00906874130601
        ]
      }
    },
    {
      "type": "Feature",
      "properties": {
        "id": 73,
        "osm_id": 442438417,
        "name": "Ramamurthy Nagar",
        "type": "suburb",
        "z_order": 3,
        "population": null
      },
      "geometry": {
        "type": "Point",
        "coordinates": [
          77.67778164259391,
          13.012021769613055
        ]
      }
    },
    {
      "type": "Feature",
      "properties": {
        "id": 74,
        "osm_id": 442438418,
        "name": "Kasturi Nagar",
        "type": "suburb",
        "z_order": 3,
        "population": null
      },
      "geometry": {
        "type": "Point",
        "coordinates": [
          77.6603230602928,
          13.004497838048394
        ]
      }
    },
    {
      "type": "Feature",
      "properties": {
        "id": 75,
        "osm_id": 443615519,
        "name": "Poojappa Layout",
        "type": "neighbourhood",
        "z_order": 2,
        "population": null
      },
      "geometry": {
        "type": "Point",
        "coordinates": [
          77.64352379849538,
          13.034789197927152
        ]
      }
    },
    {
      "type": "Feature",
      "properties": {
        "id": 76,
        "osm_id": 443634185,
        "name": "Babusapalya",
        "type": "suburb",
        "z_order": 3,
        "population": null
      },
      "geometry": {
        "type": "Point",
        "coordinates": [
          77.65046895964588,
          13.028352231566032
        ]
      }
    },
    {
      "type": "Feature",
      "properties": {
        "id": 77,
        "osm_id": 443634193,
        "name": "GNR Gardens",
        "type": "neighbourhood",
        "z_order": 2,
        "population": null
      },
      "geometry": {
        "type": "Point",
        "coordinates": [
          77.64636576658535,
          13.029946134273501
        ]
      }
    },
    {
      "type": "Feature",
      "properties": {
        "id": 78,
        "osm_id": 429736137,
        "name": "VV Puram",
        "type": "suburb",
        "z_order": 3,
        "population": null
      },
      "geometry": {
        "type": "Point",
        "coordinates": [
          77.57611024674657,
          12.953183072448866
        ]
      }
    },
    {
      "type": "Feature",
      "properties": {
        "id": 79,
        "osm_id": 429853334,
        "name": "Jayanagar",
        "type": "suburb",
        "z_order": 3,
        "population": null
      },
      "geometry": {
        "type": "Point",
        "coordinates": [
          77.5824228256646,
          12.929273023094138
        ]
      }
    },
    {
      "type": "Feature",
      "properties": {
        "id": 80,
        "osm_id": 429853335,
        "name": "J P Nagar",
        "type": "suburb",
        "z_order": 3,
        "population": null
      },
      "geometry": {
        "type": "Point",
        "coordinates": [
          77.58660665263369,
          12.909694070747262
        ]
      }
    },
    {
      "type": "Feature",
      "properties": {
        "id": 81,
        "osm_id": 429853336,
        "name": "Banashankari 2nd Stage",
        "type": "suburb",
        "z_order": 3,
        "population": null
      },
      "geometry": {
        "type": "Point",
        "coordinates": [
          77.56456383984892,
          12.924592484543012
        ]
      }
    },
    {
      "type": "Feature",
      "properties": {
        "id": 82,
        "osm_id": 429853694,
        "name": "Chamarajapete",
        "type": "suburb",
        "z_order": 3,
        "population": null
      },
      "geometry": {
        "type": "Point",
        "coordinates": [
          77.56291604150402,
          12.958418325352
        ]
      }
    },
    {
      "type": "Feature",
      "properties": {
        "id": 83,
        "osm_id": 429857521,
        "name": "Sriramapura",
        "type": "suburb",
        "z_order": 3,
        "population": null
      },
      "geometry": {
        "type": "Point",
        "coordinates": [
          77.56380913328718,
          12.990987383599133
        ]
      }
    },
    {
      "type": "Feature",
      "properties": {
        "id": 84,
        "osm_id": 429857523,
        "name": "Rajaji Nagar",
        "type": "suburb",
        "z_order": 3,
        "population": null
      },
      "geometry": {
        "type": "Point",
        "coordinates": [
          77.55488299314061,
          12.988233760768566
        ]
      }
    },
    {
      "type": "Feature",
      "properties": {
        "id": 85,
        "osm_id": 429857524,
        "name": "Vijaya Nagar",
        "type": "suburb",
        "z_order": 3,
        "population": null
      },
      "geometry": {
        "type": "Point",
        "coordinates": [
          77.53935736153039,
          12.97024678329143
        ]
      }
    },
    {
      "type": "Feature",
      "properties": {
        "id": 86,
        "osm_id": 429857525,
        "name": "Hampi Nagar",
        "type": "suburb",
        "z_order": 3,
        "population": null
      },
      "geometry": {
        "type": "Point",
        "coordinates": [
          77.53584065023489,
          12.960911438631939
        ]
      }
    },
    {
      "type": "Feature",
      "properties": {
        "id": 87,
        "osm_id": 429876575,
        "name": "Mavalli",
        "type": "neighbourhood",
        "z_order": 2,
        "population": null
      },
      "geometry": {
        "type": "Point",
        "coordinates": [
          77.58196425174197,
          12.952847796321919
        ]
      }
    },
    {
      "type": "Feature",
      "properties": {
        "id": 88,
        "osm_id": 429918281,
        "name": "Madivala",
        "type": "suburb",
        "z_order": 3,
        "population": null
      },
      "geometry": {
        "type": "Point",
        "coordinates": [
          77.61795077955105,
          12.921226898961775
        ]
      }
    },
    {
      "type": "Feature",
      "properties": {
        "id": 89,
        "osm_id": 429918282,
        "name": "Koramangala",
        "type": "suburb",
        "z_order": 3,
        "population": null
      },
      "geometry": {
        "type": "Point",
        "coordinates": [
          77.62223032785431,
          12.93401139677718
        ]
      }
    },
    {
      "type": "Feature",
      "properties": {
        "id": 90,
        "osm_id": 429921850,
        "name": "Adugodi",
        "type": "suburb",
        "z_order": 3,
        "population": null
      },
      "geometry": {
        "type": "Point",
        "coordinates": [
          77.61041544859802,
          12.942847180007533
        ]
      }
    },
    {
      "type": "Feature",
      "properties": {
        "id": 91,
        "osm_id": 429921851,
        "name": "Wilson Garden",
        "type": "suburb",
        "z_order": 3,
        "population": null
      },
      "geometry": {
        "type": "Point",
        "coordinates": [
          77.59682729390636,
          12.94893386663503
        ]
      }
    },
    {
      "type": "Feature",
      "properties": {
        "id": 92,
        "osm_id": 443807286,
        "name": "Baiyyappanahalli",
        "type": "suburb",
        "z_order": 3,
        "population": null
      },
      "geometry": {
        "type": "Point",
        "coordinates": [
          77.6533196449152,
          12.996340737517983
        ]
      }
    },
    {
      "type": "Feature",
      "properties": {
        "id": 93,
        "osm_id": 443807287,
        "name": "Banaswadi",
        "type": "suburb",
        "z_order": 3,
        "population": null
      },
      "geometry": {
        "type": "Point",
        "coordinates": [
          77.65185381768822,
          13.014161753312292
        ]
      }
    },
    {
      "type": "Feature",
      "properties": {
        "id": 94,
        "osm_id": 445363393,
        "name": "Yeshwantpur",
        "type": "suburb",
        "z_order": 3,
        "population": null
      },
      "geometry": {
        "type": "Point",
        "coordinates": [
          77.55663011703807,
          13.023606146532073
        ]
      }
    },
    {
      "type": "Feature",
      "properties": {
        "id": 95,
        "osm_id": 446812243,
        "name": "Nandini Layout",
        "type": "suburb",
        "z_order": 3,
        "population": null
      },
      "geometry": {
        "type": "Point",
        "coordinates": [
          77.53780318904393,
          13.010406325414436
        ]
      }
    },
    {
      "type": "Feature",
      "properties": {
        "id": 96,
        "osm_id": 447032045,
        "name": "Bommanahalli",
        "type": "suburb",
        "z_order": 3,
        "population": null
      },
      "geometry": {
        "type": "Point",
        "coordinates": [
          77.6239037748229,
          12.908945231517748
        ]
      }
    },
    {
      "type": "Feature",
      "properties": {
        "id": 97,
        "osm_id": 447032046,
        "name": "BTM Layout",
        "type": "suburb",
        "z_order": 3,
        "population": null
      },
      "geometry": {
        "type": "Point",
        "coordinates": [
          77.61028209251856,
          12.915177176527237
        ]
      }
    },
    {
      "type": "Feature",
      "properties": {
        "id": 98,
        "osm_id": 447032050,
        "name": "Puttenahalli",
        "type": "suburb",
        "z_order": 3,
        "population": null
      },
      "geometry": {
        "type": "Point",
        "coordinates": [
          77.58069908727697,
          12.89543192722141
        ]
      }
    },
    {
      "type": "Feature",
      "properties": {
        "id": 99,
        "osm_id": 447033407,
        "name": "Padmanabha Nagar",
        "type": "suburb",
        "z_order": 3,
        "population": null
      },
      "geometry": {
        "type": "Point",
        "coordinates": [
          77.55607515122898,
          12.91627897769942
        ]
      }
    },
    {
      "type": "Feature",
      "properties": {
        "id": 100,
        "osm_id": 447033409,
        "name": "ISRO Layout",
        "type": "suburb",
        "z_order": 3,
        "population": null
      },
      "geometry": {
        "type": "Point",
        "coordinates": [
          77.55738272812403,
          12.897428245100228
        ]
      }
    },
    {
      "type": "Feature",
      "properties": {
        "id": 101,
        "osm_id": 447033411,
        "name": "Kumaraswamy Layout",
        "type": "suburb",
        "z_order": 3,
        "population": null
      },
      "geometry": {
        "type": "Point",
        "coordinates": [
          77.55531784627725,
          12.908148699259158
        ]
      }
    },
    {
      "type": "Feature",
      "properties": {
        "id": 102,
        "osm_id": 447063719,
        "name": "Rajarajeshwari Nagar",
        "type": "suburb",
        "z_order": 3,
        "population": null
      },
      "geometry": {
        "type": "Point",
        "coordinates": [
          77.51537212650419,
          12.9274277471105
        ]
      }
    },
    {
      "type": "Feature",
      "properties": {
        "id": 103,
        "osm_id": 447063720,
        "name": "Jnana Bharathi",
        "type": "suburb",
        "z_order": 3,
        "population": null
      },
      "geometry": {
        "type": "Point",
        "coordinates": [
          77.5112325559839,
          12.943348417817305
        ]
      }
    },
    {
      "type": "Feature",
      "properties": {
        "id": 104,
        "osm_id": 448112477,
        "name": "Goragunte Palya",
        "type": "neighbourhood",
        "z_order": 2,
        "population": null
      },
      "geometry": {
        "type": "Point",
        "coordinates": [
          77.53739976804422,
          13.026771739903637
        ]
      }
    },
    {
      "type": "Feature",
      "properties": {
        "id": 105,
        "osm_id": 448991617,
        "name": "Indiranagar",
        "type": "suburb",
        "z_order": 3,
        "population": null
      },
      "geometry": {
        "type": "Point",
        "coordinates": [
          77.64046716986506,
          12.973291258162106
        ]
      }
    },
    {
      "type": "Feature",
      "properties": {
        "id": 106,
        "osm_id": 450605718,
        "name": "BEML Layout",
        "type": "neighbourhood",
        "z_order": 2,
        "population": null
      },
      "geometry": {
        "type": "Point",
        "coordinates": [
          77.71920634918189,
          12.959966127592024
        ]
      }
    },
    {
      "type": "Feature",
      "properties": {
        "id": 107,
        "osm_id": 458104498,
        "name": "Kengeri",
        "type": "suburb",
        "z_order": 3,
        "population": null
      },
      "geometry": {
        "type": "Point",
        "coordinates": [
          77.4833484786966,
          12.919940193005601
        ]
      }
    },
    {
      "type": "Feature",
      "properties": {
        "id": 108,
        "osm_id": 456013553,
        "name": "Iblur",
        "type": "suburb",
        "z_order": 3,
        "population": null
      },
      "geometry": {
        "type": "Point",
        "coordinates": [
          77.66334306000624,
          12.922543947407434
        ]
      }
    },
    {
      "type": "Feature",
      "properties": {
        "id": 109,
        "osm_id": 456016705,
        "name": "Bellanduru",
        "type": "suburb",
        "z_order": 3,
        "population": null
      },
      "geometry": {
        "type": "Point",
        "coordinates": [
          77.6770416881817,
          12.929211332286798
        ]
      }
    },
    {
      "type": "Feature",
      "properties": {
        "id": 110,
        "osm_id": 456016994,
        "name": "HSR Layout",
        "type": "suburb",
        "z_order": 3,
        "population": null
      },
      "geometry": {
        "type": "Point",
        "coordinates": [
          77.63886211922635,
          12.911622495210395
        ]
      }
    },
    {
      "type": "Feature",
      "properties": {
        "id": 111,
        "osm_id": 456112031,
        "name": "Okalipura",
        "type": "suburb",
        "z_order": 3,
        "population": null
      },
      "geometry": {
        "type": "Point",
        "coordinates": [
          77.56603167873266,
          12.983282235287845
        ]
      }
    },
    {
      "type": "Feature",
      "properties": {
        "id": 112,
        "osm_id": 456025400,
        "name": "Anjanapura",
        "type": "village",
        "z_order": 5,
        "population": null
      },
      "geometry": {
        "type": "Point",
        "coordinates": [
          77.5580712176507,
          12.858081077032807
        ]
      }
    },
    {
      "type": "Feature",
      "properties": {
        "id": 113,
        "osm_id": 456112035,
        "name": "Ramachandra Pura",
        "type": "suburb",
        "z_order": 3,
        "population": null
      },
      "geometry": {
        "type": "Point",
        "coordinates": [
          77.56222235519743,
          12.985184256755986
        ]
      }
    },
    {
      "type": "Feature",
      "properties": {
        "id": 114,
        "osm_id": 458272897,
        "name": "Jayamahal Extension",
        "type": "neighbourhood",
        "z_order": 2,
        "population": null
      },
      "geometry": {
        "type": "Point",
        "coordinates": [
          77.5985349390399,
          12.999830961999436
        ]
      }
    },
    {
      "type": "Feature",
      "properties": {
        "id": 115,
        "osm_id": 459510391,
        "name": "Konappana Agrahara",
        "type": "village",
        "z_order": 5,
        "population": null
      },
      "geometry": {
        "type": "Point",
        "coordinates": [
          77.66816894075839,
          12.8528617497457
        ]
      }
    },
    {
      "type": "Feature",
      "properties": {
        "id": 116,
        "osm_id": 459468111,
        "name": "Anantnagar",
        "type": "suburb",
        "z_order": 3,
        "population": null
      },
      "geometry": {
        "type": "Point",
        "coordinates": [
          77.68655816576882,
          12.837595286581573
        ]
      }
    },
    {
      "type": "Feature",
      "properties": {
        "id": 117,
        "osm_id": 459527147,
        "name": "Bettadasana Pura",
        "type": "village",
        "z_order": 5,
        "population": null
      },
      "geometry": {
        "type": "Point",
        "coordinates": [
          77.63225139601246,
          12.842040377472557
        ]
      }
    },
    {
      "type": "Feature",
      "properties": {
        "id": 118,
        "osm_id": 459501900,
        "name": "Electronics City Phase 1",
        "type": "suburb",
        "z_order": 3,
        "population": null
      },
      "geometry": {
        "type": "Point",
        "coordinates": [
          77.66497484891602,
          12.84967821910135
        ]
      }
    },
    {
      "type": "Feature",
      "properties": {
        "id": 119,
        "osm_id": 459514803,
        "name": "Hebbagodi",
        "type": "village",
        "z_order": 5,
        "population": null
      },
      "geometry": {
        "type": "Point",
        "coordinates": [
          77.67997443228313,
          12.826701578484062
        ]
      }
    },
    {
      "type": "Feature",
      "properties": {
        "id": 120,
        "osm_id": 461755226,
        "name": "Vasantnagar",
        "type": "suburb",
        "z_order": 3,
        "population": null
      },
      "geometry": {
        "type": "Point",
        "coordinates": [
          77.59021447521667,
          12.993428277622286
        ]
      }
    },
    {
      "type": "Feature",
      "properties": {
        "id": 121,
        "osm_id": 461755005,
        "name": "Guttahalli",
        "type": "suburb",
        "z_order": 3,
        "population": null
      },
      "geometry": {
        "type": "Point",
        "coordinates": [
          77.58038577173636,
          13.00041643793611
        ]
      }
    },
    {
      "type": "Feature",
      "properties": {
        "id": 122,
        "osm_id": 459781784,
        "name": "Neelasandra",
        "type": "suburb",
        "z_order": 3,
        "population": null
      },
      "geometry": {
        "type": "Point",
        "coordinates": [
          77.61409175132995,
          12.952179255724786
        ]
      }
    },
    {
      "type": "Feature",
      "properties": {
        "id": 123,
        "osm_id": 459815995,
        "name": "Shantala Nagar",
        "type": "neighbourhood",
        "z_order": 2,
        "population": null
      },
      "geometry": {
        "type": "Point",
        "coordinates": [
          77.59894162898189,
          12.972135980447717
        ]
      }
    },
    {
      "type": "Feature",
      "properties": {
        "id": 124,
        "osm_id": 459782030,
        "name": "Rajendranagar",
        "type": "locality",
        "z_order": 1,
        "population": null
      },
      "geometry": {
        "type": "Point",
        "coordinates": [
          77.61749622894195,
          12.946637057527425
        ]
      }
    },
    {
      "type": "Feature",
      "properties": {
        "id": 125,
        "osm_id": 459811879,
        "name": "Austin Town BDA Layout",
        "type": "neighbourhood",
        "z_order": 2,
        "population": null
      },
      "geometry": {
        "type": "Point",
        "coordinates": [
          77.61538574954187,
          12.956672123463846
        ]
      }
    },
    {
      "type": "Feature",
      "properties": {
        "id": 126,
        "osm_id": 493530617,
        "name": "Bismillah Nagar",
        "type": "neighbourhood",
        "z_order": 2,
        "population": null
      },
      "geometry": {
        "type": "Point",
        "coordinates": [
          77.60338462439705,
          12.92633843497407
        ]
      }
    },
    {
      "type": "Feature",
      "properties": {
        "id": 127,
        "osm_id": 461539035,
        "name": "Sadhashivanagar",
        "type": "suburb",
        "z_order": 3,
        "population": null
      },
      "geometry": {
        "type": "Point",
        "coordinates": [
          77.58086404313144,
          13.011019293993513
        ]
      }
    },
    {
      "type": "Feature",
      "properties": {
        "id": 128,
        "osm_id": 461539223,
        "name": "Subrahmanya Nagar",
        "type": "suburb",
        "z_order": 3,
        "population": null
      },
      "geometry": {
        "type": "Point",
        "coordinates": [
          77.55679934766317,
          13.00444536733451
        ]
      }
    },
    {
      "type": "Feature",
      "properties": {
        "id": 129,
        "osm_id": 493530639,
        "name": "NAL Layout",
        "type": "neighbourhood",
        "z_order": 2,
        "population": null
      },
      "geometry": {
        "type": "Point",
        "coordinates": [
          77.59889217575318,
          12.925390777001269
        ]
      }
    },
    {
      "type": "Feature",
      "properties": {
        "id": 130,
        "osm_id": 493538976,
        "name": "Tilak Nagar",
        "type": "neighbourhood",
        "z_order": 2,
        "population": null
      },
      "geometry": {
        "type": "Point",
        "coordinates": [
          77.5947123720976,
          12.92758759000401
        ]
      }
    },
    {
      "type": "Feature",
      "properties": {
        "id": 131,
        "osm_id": 493538966,
        "name": "RBI Colony",
        "type": "locality",
        "z_order": 1,
        "population": null
      },
      "geometry": {
        "type": "Point",
        "coordinates": [
          77.59343429950172,
          12.930725523095076
        ]
      }
    },
    {
      "type": "Feature",
      "properties": {
        "id": 132,
        "osm_id": 493538968,
        "name": "Rajanna Layout",
        "type": "locality",
        "z_order": 1,
        "population": null
      },
      "geometry": {
        "type": "Point",
        "coordinates": [
          77.59689979736879,
          12.930773970495435
        ]
      }
    },
    {
      "type": "Feature",
      "properties": {
        "id": 133,
        "osm_id": 493538970,
        "name": "Canara Bank Colony",
        "type": "neighbourhood",
        "z_order": 2,
        "population": null
      },
      "geometry": {
        "type": "Point",
        "coordinates": [
          77.59089382846884,
          12.931190467264116
        ]
      }
    },
    {
      "type": "Feature",
      "properties": {
        "id": 134,
        "osm_id": 493538972,
        "name": "LIC Colony",
        "type": "locality",
        "z_order": 1,
        "population": null
      },
      "geometry": {
        "type": "Point",
        "coordinates": [
          77.58992102478652,
          12.930300979699354
        ]
      }
    },
    {
      "type": "Feature",
      "properties": {
        "id": 135,
        "osm_id": 483402740,
        "name": "Hesaraghatta",
        "type": "village",
        "z_order": 5,
        "population": null
      },
      "geometry": {
        "type": "Point",
        "coordinates": [
          77.47836275505091,
          13.139398367017748
        ]
      }
    },
    {
      "type": "Feature",
      "properties": {
        "id": 136,
        "osm_id": 494013065,
        "name": "Jayanagar 4th Block",
        "type": "neighbourhood",
        "z_order": 2,
        "population": null
      },
      "geometry": {
        "type": "Point",
        "coordinates": [
          77.58348254968286,
          12.925642988467757
        ]
      }
    },
    {
      "type": "Feature",
      "properties": {
        "id": 137,
        "osm_id": 494013059,
        "name": "Jayanagar 8th Block",
        "type": "neighbourhood",
        "z_order": 2,
        "population": null
      },
      "geometry": {
        "type": "Point",
        "coordinates": [
          77.57763064016319,
          12.919715138905389
        ]
      }
    },
    {
      "type": "Feature",
      "properties": {
        "id": 138,
        "osm_id": 494013086,
        "name": "Jayanagar 4T Block",
        "type": "neighbourhood",
        "z_order": 2,
        "population": null
      },
      "geometry": {
        "type": "Point",
        "coordinates": [
          77.59317663979817,
          12.923547596493421
        ]
      }
    },
    {
      "type": "Feature",
      "properties": {
        "id": 139,
        "osm_id": 494013068,
        "name": "Jayanagar 5th Block",
        "type": "neighbourhood",
        "z_order": 2,
        "population": null
      },
      "geometry": {
        "type": "Point",
        "coordinates": [
          77.58338096101636,
          12.919603659593177
        ]
      }
    },
    {
      "type": "Feature",
      "properties": {
        "id": 140,
        "osm_id": 492698586,
        "name": "Siddartha Nagar",
        "type": "locality",
        "z_order": 1,
        "population": null
      },
      "geometry": {
        "type": "Point",
        "coordinates": [
          77.52784372787414,
          13.046635928415496
        ]
      }
    },
    {
      "type": "Feature",
      "properties": {
        "id": 141,
        "osm_id": 494013077,
        "name": "Jayanagar 7th Block",
        "type": "neighbourhood",
        "z_order": 2,
        "population": null
      },
      "geometry": {
        "type": "Point",
        "coordinates": [
          77.57755034153081,
          12.925464789206302
        ]
      }
    },
    {
      "type": "Feature",
      "properties": {
        "id": 142,
        "osm_id": 494013080,
        "name": "IAS Officers Colony",
        "type": "neighbourhood",
        "z_order": 2,
        "population": null
      },
      "geometry": {
        "type": "Point",
        "coordinates": [
          77.61172126529345,
          12.911508668965297
        ]
      }
    },
    {
      "type": "Feature",
      "properties": {
        "id": 143,
        "osm_id": 503050594,
        "name": "Koramangala 2nd Block",
        "type": "neighbourhood",
        "z_order": 2,
        "population": null
      },
      "geometry": {
        "type": "Point",
        "coordinates": [
          77.62555618321454,
          12.92435083427452
        ]
      }
    },
    {
      "type": "Feature",
      "properties": {
        "id": 144,
        "osm_id": 503002530,
        "name": "Madanayakanahalli",
        "type": "village",
        "z_order": 5,
        "population": null
      },
      "geometry": {
        "type": "Point",
        "coordinates": [
          77.46151119017765,
          13.059247172292316
        ]
      }
    },
    {
      "type": "Feature",
      "properties": {
        "id": 145,
        "osm_id": 494238049,
        "name": "MICO Layout",
        "type": "locality",
        "z_order": 1,
        "population": null
      },
      "geometry": {
        "type": "Point",
        "coordinates": [
          77.60062857081458,
          12.915113054967975
        ]
      }
    },
    {
      "type": "Feature",
      "properties": {
        "id": 146,
        "osm_id": 494240021,
        "name": "Jayanagar 9th Block",
        "type": "neighbourhood",
        "z_order": 2,
        "population": null
      },
      "geometry": {
        "type": "Point",
        "coordinates": [
          77.59386529696292,
          12.91914558858474
        ]
      }
    },
    {
      "type": "Feature",
      "properties": {
        "id": 147,
        "osm_id": 494248860,
        "name": "JP Nagar 1st Phase",
        "type": "neighbourhood",
        "z_order": 2,
        "population": null
      },
      "geometry": {
        "type": "Point",
        "coordinates": [
          77.57988704849753,
          12.911914772174043
        ]
      }
    },
    {
      "type": "Feature",
      "properties": {
        "id": 148,
        "osm_id": 503002343,
        "name": "Anchepalya",
        "type": "village",
        "z_order": 5,
        "population": null
      },
      "geometry": {
        "type": "Point",
        "coordinates": [
          77.48041271711003,
          13.057733316760133
        ]
      }
    },
    {
      "type": "Feature",
      "properties": {
        "id": 149,
        "osm_id": 494248872,
        "name": "JP Nagar 2nd Phase",
        "type": "neighbourhood",
        "z_order": 2,
        "population": null
      },
      "geometry": {
        "type": "Point",
        "coordinates": [
          77.59184919779254,
          12.911747134110584
        ]
      }
    },
    {
      "type": "Feature",
      "properties": {
        "id": 150,
        "osm_id": 503002366,
        "name": "Madhavara",
        "type": "village",
        "z_order": 5,
        "population": null
      },
      "geometry": {
        "type": "Point",
        "coordinates": [
          77.47296782689232,
          13.053198790962313
        ]
      }
    },
    {
      "type": "Feature",
      "properties": {
        "id": 151,
        "osm_id": 494248874,
        "name": "JP Nagar 3rd Phase",
        "type": "locality",
        "z_order": 1,
        "population": null
      },
      "geometry": {
        "type": "Point",
        "coordinates": [
          77.59740413648274,
          12.91163104475163
        ]
      }
    },
    {
      "type": "Feature",
      "properties": {
        "id": 152,
        "osm_id": 503518563,
        "name": "MS Palaya",
        "type": "suburb",
        "z_order": 3,
        "population": null
      },
      "geometry": {
        "type": "Point",
        "coordinates": [
          77.54680518541426,
          13.082860837550811
        ]
      }
    },
    {
      "type": "Feature",
      "properties": {
        "id": 153,
        "osm_id": 503532428,
        "name": "Kammagondanahalli",
        "type": "suburb",
        "z_order": 3,
        "population": null
      },
      "geometry": {
        "type": "Point",
        "coordinates": [
          77.53319247174625,
          13.058405796851757
        ]
      }
    },
    {
      "type": "Feature",
      "properties": {
        "id": 154,
        "osm_id": 503573878,
        "name": "BEL Colony",
        "type": "neighbourhood",
        "z_order": 2,
        "population": null
      },
      "geometry": {
        "type": "Point",
        "coordinates": [
          77.56012612503275,
          13.056658253859098
        ]
      }
    },
    {
      "type": "Feature",
      "properties": {
        "id": 155,
        "osm_id": 503574042,
        "name": "HMT Colony",
        "type": "neighbourhood",
        "z_order": 2,
        "population": null
      },
      "geometry": {
        "type": "Point",
        "coordinates": [
          77.54884793903665,
          13.05221844356714
        ]
      }
    },
    {
      "type": "Feature",
      "properties": {
        "id": 156,
        "osm_id": 503571062,
        "name": "Doddabomasandra",
        "type": "suburb",
        "z_order": 3,
        "population": null
      },
      "geometry": {
        "type": "Point",
        "coordinates": [
          77.55851244103376,
          13.06275357384689
        ]
      }
    },
    {
      "type": "Feature",
      "properties": {
        "id": 157,
        "osm_id": 512072659,
        "name": "Kattigenahalli",
        "type": "village",
        "z_order": 5,
        "population": null
      },
      "geometry": {
        "type": "Point",
        "coordinates": [
          77.62735594546399,
          13.119434852953276
        ]
      }
    },
    {
      "type": "Feature",
      "properties": {
        "id": 158,
        "osm_id": 513600979,
        "name": "Indiranagar 2nd Stage",
        "type": "neighbourhood",
        "z_order": 2,
        "population": null
      },
      "geometry": {
        "type": "Point",
        "coordinates": [
          77.63879992550481,
          12.976249147973022
        ]
      }
    },
    {
      "type": "Feature",
      "properties": {
        "id": 159,
        "osm_id": 513600977,
        "name": "HAL 1st Stage",
        "type": "neighbourhood",
        "z_order": 2,
        "population": null
      },
      "geometry": {
        "type": "Point",
        "coordinates": [
          77.6425973467376,
          12.97114205436938
        ]
      }
    },
    {
      "type": "Feature",
      "properties": {
        "id": 160,
        "osm_id": 513600978,
        "name": "Indiranagar 1st Stage",
        "type": "neighbourhood",
        "z_order": 2,
        "population": null
      },
      "geometry": {
        "type": "Point",
        "coordinates": [
          77.63915339036163,
          12.979341986424998
        ]
      }
    },
    {
      "type": "Feature",
      "properties": {
        "id": 161,
        "osm_id": 513660186,
        "name": "NR Colony",
        "type": "neighbourhood",
        "z_order": 2,
        "population": null
      },
      "geometry": {
        "type": "Point",
        "coordinates": [
          77.65675027406508,
          12.961776618677503
        ]
      }
    },
    {
      "type": "Feature",
      "properties": {
        "id": 162,
        "osm_id": 513652499,
        "name": "Domlur 1st Stage",
        "type": "neighbourhood",
        "z_order": 2,
        "population": null
      },
      "geometry": {
        "type": "Point",
        "coordinates": [
          77.63779082818178,
          12.959141935052967
        ]
      }
    },
    {
      "type": "Feature",
      "properties": {
        "id": 163,
        "osm_id": 513600980,
        "name": "Mottappanapalaya",
        "type": "neighbourhood",
        "z_order": 2,
        "population": null
      },
      "geometry": {
        "type": "Point",
        "coordinates": [
          77.63827781675616,
          12.973961223682778
        ]
      }
    },
    {
      "type": "Feature",
      "properties": {
        "id": 164,
        "osm_id": 513660192,
        "name": "Konena Agrahara",
        "type": "neighbourhood",
        "z_order": 2,
        "population": null
      },
      "geometry": {
        "type": "Point",
        "coordinates": [
          77.66233723162543,
          12.95860607998307
        ]
      }
    },
    {
      "type": "Feature",
      "properties": {
        "id": 165,
        "osm_id": 513600981,
        "name": "Jeevan Bhima Nagar",
        "type": "suburb",
        "z_order": 3,
        "population": null
      },
      "geometry": {
        "type": "Point",
        "coordinates": [
          77.65683669148683,
          12.967807398010848
        ]
      }
    },
    {
      "type": "Feature",
      "properties": {
        "id": 166,
        "osm_id": 513652501,
        "name": "New Thippasandra",
        "type": "neighbourhood",
        "z_order": 2,
        "population": null
      },
      "geometry": {
        "type": "Point",
        "coordinates": [
          77.65369305870159,
          12.973695517352182
        ]
      }
    },
    {
      "type": "Feature",
      "properties": {
        "id": 167,
        "osm_id": 514409999,
        "name": "Cooke Town",
        "type": "suburb",
        "z_order": 3,
        "population": null
      },
      "geometry": {
        "type": "Point",
        "coordinates": [
          77.62474699428219,
          13.002785163772955
        ]
      }
    },
    {
      "type": "Feature",
      "properties": {
        "id": 168,
        "osm_id": 513652502,
        "name": "Vimanapura",
        "type": "suburb",
        "z_order": 3,
        "population": null
      },
      "geometry": {
        "type": "Point",
        "coordinates": [
          77.66365168168107,
          12.961291557940854
        ]
      }
    },
    {
      "type": "Feature",
      "properties": {
        "id": 169,
        "osm_id": 513660180,
        "name": "Murugeshpalaya",
        "type": "suburb",
        "z_order": 3,
        "population": null
      },
      "geometry": {
        "type": "Point",
        "coordinates": [
          77.65771477966325,
          12.95612227061568
        ]
      }
    },
    {
      "type": "Feature",
      "properties": {
        "id": 170,
        "osm_id": 529003770,
        "name": "Raj Mahal Vilas",
        "type": "suburb",
        "z_order": 3,
        "population": null
      },
      "geometry": {
        "type": "Point",
        "coordinates": [
          77.57346625920951,
          13.032143450190432
        ]
      }
    },
    {
      "type": "Feature",
      "properties": {
        "id": 171,
        "osm_id": 529277252,
        "name": "Hebbal",
        "type": "suburb",
        "z_order": 3,
        "population": null
      },
      "geometry": {
        "type": "Point",
        "coordinates": [
          77.59189999212583,
          13.038218318334458
        ]
      }
    },
    {
      "type": "Feature",
      "properties": {
        "id": 172,
        "osm_id": 533583971,
        "name": "Arkavathy Layout 1st Block",
        "type": "locality",
        "z_order": 1,
        "population": null
      },
      "geometry": {
        "type": "Point",
        "coordinates": [
          77.6091253898806,
          13.081107846321089
        ]
      }
    },
    {
      "type": "Feature",
      "properties": {
        "id": 173,
        "osm_id": 533583774,
        "name": "Arkavathy Layout 7th Block",
        "type": "locality",
        "z_order": 1,
        "population": null
      },
      "geometry": {
        "type": "Point",
        "coordinates": [
          77.60976903622532,
          13.07302324925314
        ]
      }
    },
    {
      "type": "Feature",
      "properties": {
        "id": 174,
        "osm_id": 529291178,
        "name": "Sanjay Nagar",
        "type": "suburb",
        "z_order": 3,
        "population": null
      },
      "geometry": {
        "type": "Point",
        "coordinates": [
          77.57797094543207,
          13.036499189993577
        ]
      }
    },
    {
      "type": "Feature",
      "properties": {
        "id": 175,
        "osm_id": 529291184,
        "name": "RMV 2nd Stage",
        "type": "locality",
        "z_order": 1,
        "population": null
      },
      "geometry": {
        "type": "Point",
        "coordinates": [
          77.57405098077493,
          13.029986786503883
        ]
      }
    },
    {
      "type": "Feature",
      "properties": {
        "id": 176,
        "osm_id": 529372193,
        "name": "Sundar Nagar",
        "type": "locality",
        "z_order": 1,
        "population": null
      },
      "geometry": {
        "type": "Point",
        "coordinates": [
          77.55866054926285,
          13.041416349671294
        ]
      }
    },
    {
      "type": "Feature",
      "properties": {
        "id": 177,
        "osm_id": 533588736,
        "name": "Jakkur",
        "type": "village",
        "z_order": 5,
        "population": null
      },
      "geometry": {
        "type": "Point",
        "coordinates": [
          77.6068937919797,
          13.078474252343964
        ]
      }
    },
    {
      "type": "Feature",
      "properties": {
        "id": 178,
        "osm_id": 533592521,
        "name": "Arkavathy Layout 3rd Block",
        "type": "locality",
        "z_order": 1,
        "population": null
      },
      "geometry": {
        "type": "Point",
        "coordinates": [
          77.62171668482785,
          13.07513842251899
        ]
      }
    },
    {
      "type": "Feature",
      "properties": {
        "id": 179,
        "osm_id": 548633836,
        "name": "Chikkagubbi",
        "type": "village",
        "z_order": 5,
        "population": null
      },
      "geometry": {
        "type": "Point",
        "coordinates": [
          77.66622174083216,
          13.080606692330347
        ]
      }
    },
    {
      "type": "Feature",
      "properties": {
        "id": 180,
        "osm_id": 548636643,
        "name": "Kadaagrahara",
        "type": "village",
        "z_order": 5,
        "population": null
      },
      "geometry": {
        "type": "Point",
        "coordinates": [
          77.69161253720148,
          13.080637453914989
        ]
      }
    },
    {
      "type": "Feature",
      "properties": {
        "id": 181,
        "osm_id": 548633848,
        "name": "Gollahalli",
        "type": "village",
        "z_order": 5,
        "population": null
      },
      "geometry": {
        "type": "Point",
        "coordinates": [
          77.67579395807529,
          13.083045239420613
        ]
      }
    },
    {
      "type": "Feature",
      "properties": {
        "id": 182,
        "osm_id": 533558712,
        "name": "Sahakaranagara",
        "type": "suburb",
        "z_order": 3,
        "population": null
      },
      "geometry": {
        "type": "Point",
        "coordinates": [
          77.58588237238047,
          13.062906627398831
        ]
      }
    },
    {
      "type": "Feature",
      "properties": {
        "id": 183,
        "osm_id": 533581425,
        "name": "Arkavathy Layout",
        "type": "suburb",
        "z_order": 3,
        "population": null
      },
      "geometry": {
        "type": "Point",
        "coordinates": [
          77.60370087360377,
          13.059478680457971
        ]
      }
    },
    {
      "type": "Feature",
      "properties": {
        "id": 184,
        "osm_id": 549691202,
        "name": "Bagaluru",
        "type": "village",
        "z_order": 5,
        "population": null
      },
      "geometry": {
        "type": "Point",
        "coordinates": [
          77.66870923823694,
          13.133186790032966
        ]
      }
    },
    {
      "type": "Feature",
      "properties": {
        "id": 185,
        "osm_id": 533595969,
        "name": "MCEHS Layout",
        "type": "locality",
        "z_order": 1,
        "population": null
      },
      "geometry": {
        "type": "Point",
        "coordinates": [
          77.61524501738756,
          13.072580181851379
        ]
      }
    },
    {
      "type": "Feature",
      "properties": {
        "id": 186,
        "osm_id": 533596428,
        "name": "Telecom Layout",
        "type": "locality",
        "z_order": 1,
        "population": null
      },
      "geometry": {
        "type": "Point",
        "coordinates": [
          77.61547677701031,
          13.069177464439063
        ]
      }
    },
    {
      "type": "Feature",
      "properties": {
        "id": 187,
        "osm_id": 566513907,
        "name": "Budigere",
        "type": "village",
        "z_order": 5,
        "population": null
      },
      "geometry": {
        "type": "Point",
        "coordinates": [
          77.74651458972119,
          13.135611423163965
        ]
      }
    },
    {
      "type": "Feature",
      "properties": {
        "id": 188,
        "osm_id": 565301088,
        "name": "Hanumanthanagar",
        "type": "village",
        "z_order": 5,
        "population": null
      },
      "geometry": {
        "type": "Point",
        "coordinates": [
          77.66927334032049,
          13.060614763614096
        ]
      }
    },
    {
      "type": "Feature",
      "properties": {
        "id": 189,
        "osm_id": 565301339,
        "name": "Yarappanahalli",
        "type": "village",
        "z_order": 5,
        "population": null
      },
      "geometry": {
        "type": "Point",
        "coordinates": [
          77.68625926710166,
          13.086030957150058
        ]
      }
    },
    {
      "type": "Feature",
      "properties": {
        "id": 190,
        "osm_id": 565301359,
        "name": "Chokkanahalli",
        "type": "village",
        "z_order": 5,
        "population": null
      },
      "geometry": {
        "type": "Point",
        "coordinates": [
          77.68734078406811,
          13.113225119987163
        ]
      }
    },
    {
      "type": "Feature",
      "properties": {
        "id": 191,
        "osm_id": 565301360,
        "name": "Marenahalli",
        "type": "village",
        "z_order": 5,
        "population": null
      },
      "geometry": {
        "type": "Point",
        "coordinates": [
          77.67924688308767,
          13.119912453796104
        ]
      }
    },
    {
      "type": "Feature",
      "properties": {
        "id": 192,
        "osm_id": 568282200,
        "name": "Lower Palace Orchard",
        "type": "neighbourhood",
        "z_order": 2,
        "population": null
      },
      "geometry": {
        "type": "Point",
        "coordinates": [
          77.58126335699858,
          13.004409325150874
        ]
      }
    },
    {
      "type": "Feature",
      "properties": {
        "id": 193,
        "osm_id": 565301361,
        "name": "Chagalatti",
        "type": "village",
        "z_order": 5,
        "population": null
      },
      "geometry": {
        "type": "Point",
        "coordinates": [
          77.6692476916968,
          13.122336584012913
        ]
      }
    },
    {
      "type": "Feature",
      "properties": {
        "id": 194,
        "osm_id": 567770959,
        "name": "Agara",
        "type": "suburb",
        "z_order": 3,
        "population": null
      },
      "geometry": {
        "type": "Point",
        "coordinates": [
          77.64680849871098,
          13.038673371857755
        ]
      }
    },
    {
      "type": "Feature",
      "properties": {
        "id": 195,
        "osm_id": 567771160,
        "name": "Chelekere",
        "type": "village",
        "z_order": 5,
        "population": null
      },
      "geometry": {
        "type": "Point",
        "coordinates": [
          77.64249978138463,
          13.028655656460899
        ]
      }
    },
    {
      "type": "Feature",
      "properties": {
        "id": 196,
        "osm_id": 567772575,
        "name": "Kalyan Nagar",
        "type": "suburb",
        "z_order": 3,
        "population": null
      },
      "geometry": {
        "type": "Point",
        "coordinates": [
          77.64033674745167,
          13.02214157659057
        ]
      }
    },
    {
      "type": "Feature",
      "properties": {
        "id": 197,
        "osm_id": 567773467,
        "name": "Shree Vinayaka Layout",
        "type": "suburb",
        "z_order": 3,
        "population": null
      },
      "geometry": {
        "type": "Point",
        "coordinates": [
          77.70042443200776,
          13.011543246760878
        ]
      }
    },
    {
      "type": "Feature",
      "properties": {
        "id": 198,
        "osm_id": 568954124,
        "name": "Varadenahalli",
        "type": "village",
        "z_order": 5,
        "population": null
      },
      "geometry": {
        "type": "Point",
        "coordinates": [
          77.8027271528021,
          13.216377849582328
        ]
      }
    },
    {
      "type": "Feature",
      "properties": {
        "id": 199,
        "osm_id": 573534505,
        "name": "Uttarahalli",
        "type": "suburb",
        "z_order": 3,
        "population": null
      },
      "geometry": {
        "type": "Point",
        "coordinates": [
          77.54554379280563,
          12.90556816272914
        ]
      }
    },
    {
      "type": "Feature",
      "properties": {
        "id": 200,
        "osm_id": 574874181,
        "name": "Channasandra",
        "type": "village",
        "z_order": 5,
        "population": null
      },
      "geometry": {
        "type": "Point",
        "coordinates": [
          77.76838523821476,
          12.980493743740084
        ]
      }
    },
    {
      "type": "Feature",
      "properties": {
        "id": 201,
        "osm_id": 574606489,
        "name": "Ullalu Upanagara",
        "type": "suburb",
        "z_order": 3,
        "population": null
      },
      "geometry": {
        "type": "Point",
        "coordinates": [
          77.47458846787089,
          12.962762749585863
        ]
      }
    },
    {
      "type": "Feature",
      "properties": {
        "id": 202,
        "osm_id": 589789927,
        "name": "HMT Watch Factory Colony",
        "type": "neighbourhood",
        "z_order": 2,
        "population": null
      },
      "geometry": {
        "type": "Point",
        "coordinates": [
          77.53246685038852,
          13.046697367765773
        ]
      }
    },
    {
      "type": "Feature",
      "properties": {
        "id": 203,
        "osm_id": 574853138,
        "name": "Mahadevapura",
        "type": "suburb",
        "z_order": 3,
        "population": null
      },
      "geometry": {
        "type": "Point",
        "coordinates": [
          77.69241552352548,
          12.993497595961543
        ]
      }
    },
    {
      "type": "Feature",
      "properties": {
        "id": 204,
        "osm_id": 582576115,
        "name": "Kanaka Nagar",
        "type": "neighbourhood",
        "z_order": 2,
        "population": null
      },
      "geometry": {
        "type": "Point",
        "coordinates": [
          77.60820623037858,
          13.037410470506615
        ]
      }
    },
    {
      "type": "Feature",
      "properties": {
        "id": 205,
        "osm_id": 578936450,
        "name": "Hoskote",
        "type": "town",
        "z_order": 6,
        "population": 50000
      },
      "geometry": {
        "type": "Point",
        "coordinates": [
          77.79213804306595,
          13.07301394534062
        ]
      }
    },
    {
      "type": "Feature",
      "properties": {
        "id": 206,
        "osm_id": 595302508,
        "name": "Malappa Layout",
        "type": "locality",
        "z_order": 1,
        "population": null
      },
      "geometry": {
        "type": "Point",
        "coordinates": [
          77.65115242003066,
          13.027072734046582
        ]
      }
    },
    {
      "type": "Feature",
      "properties": {
        "id": 207,
        "osm_id": 590004335,
        "name": "Bahubali Nagar",
        "type": "locality",
        "z_order": 1,
        "population": null
      },
      "geometry": {
        "type": "Point",
        "coordinates": [
          77.54921456348148,
          13.045066836141416
        ]
      }
    },
    {
      "type": "Feature",
      "properties": {
        "id": 208,
        "osm_id": 595167032,
        "name": "Vinayaka Nagar B Block",
        "type": "neighbourhood",
        "z_order": 2,
        "population": null
      },
      "geometry": {
        "type": "Point",
        "coordinates": [
          77.65894691942975,
          12.954520824195356
        ]
      }
    },
    {
      "type": "Feature",
      "properties": {
        "id": 209,
        "osm_id": 595301768,
        "name": "Nanjunda Reddy Layout",
        "type": "locality",
        "z_order": 1,
        "population": null
      },
      "geometry": {
        "type": "Point",
        "coordinates": [
          77.65249352453843,
          13.025222596559104
        ]
      }
    },
    {
      "type": "Feature",
      "properties": {
        "id": 210,
        "osm_id": 595304404,
        "name": "Bank Avenue Colony",
        "type": "locality",
        "z_order": 1,
        "population": null
      },
      "geometry": {
        "type": "Point",
        "coordinates": [
          77.65279854199491,
          13.022567796366957
        ]
      }
    },
    {
      "type": "Feature",
      "properties": {
        "id": 211,
        "osm_id": 595688375,
        "name": "Hennur Gardens",
        "type": "locality",
        "z_order": 1,
        "population": null
      },
      "geometry": {
        "type": "Point",
        "coordinates": [
          77.64329019485393,
          13.0376904260726
        ]
      }
    },
    {
      "type": "Feature",
      "properties": {
        "id": 212,
        "osm_id": 597061740,
        "name": "Marasandura",
        "type": "village",
        "z_order": 5,
        "population": null
      },
      "geometry": {
        "type": "Point",
        "coordinates": [
          77.71485429741614,
          13.099491790732515
        ]
      }
    },
    {
      "type": "Feature",
      "properties": {
        "id": 213,
        "osm_id": 597066208,
        "name": "Sri Krishna Nagar",
        "type": "village",
        "z_order": 5,
        "population": null
      },
      "geometry": {
        "type": "Point",
        "coordinates": [
          77.65354712976733,
          13.077583758950823
        ]
      }
    },
    {
      "type": "Feature",
      "properties": {
        "id": 214,
        "osm_id": 597072518,
        "name": "MacIvor Town",
        "type": "suburb",
        "z_order": 3,
        "population": null
      },
      "geometry": {
        "type": "Point",
        "coordinates": [
          77.6001315239564,
          12.966076032091307
        ]
      }
    },
    {
      "type": "Feature",
      "properties": {
        "id": 215,
        "osm_id": 598947872,
        "name": "Mohan Kumar Nagar",
        "type": "locality",
        "z_order": 1,
        "population": null
      },
      "geometry": {
        "type": "Point",
        "coordinates": [
          77.5511384617169,
          13.031024047021617
        ]
      }
    },
    {
      "type": "Feature",
      "properties": {
        "id": 216,
        "osm_id": 598947913,
        "name": "Muthyalamma Nagar",
        "type": "locality",
        "z_order": 1,
        "population": null
      },
      "geometry": {
        "type": "Point",
        "coordinates": [
          77.55152159851093,
          13.039989330655999
        ]
      }
    },
    {
      "type": "Feature",
      "properties": {
        "id": 217,
        "osm_id": 597694337,
        "name": "Post & Telegraph Layout",
        "type": "suburb",
        "z_order": 3,
        "population": null
      },
      "geometry": {
        "type": "Point",
        "coordinates": [
          77.65804033278255,
          13.024731333214106
        ]
      }
    },
    {
      "type": "Feature",
      "properties": {
        "id": 218,
        "osm_id": 598947998,
        "name": "Gokula",
        "type": "suburb",
        "z_order": 3,
        "population": null
      },
      "geometry": {
        "type": "Point",
        "coordinates": [
          77.55623013261868,
          13.040968923679884
        ]
      }
    },
    {
      "type": "Feature",
      "properties": {
        "id": 219,
        "osm_id": 598948010,
        "name": "MSR Nagar",
        "type": "locality",
        "z_order": 1,
        "population": null
      },
      "geometry": {
        "type": "Point",
        "coordinates": [
          77.56681966145004,
          13.033310294931226
        ]
      }
    },
    {
      "type": "Feature",
      "properties": {
        "id": 220,
        "osm_id": 599212727,
        "name": "Peenya 2nd Stage",
        "type": "neighbourhood",
        "z_order": 2,
        "population": null
      },
      "geometry": {
        "type": "Point",
        "coordinates": [
          77.51296316753212,
          13.028316776115588
        ]
      }
    },
    {
      "type": "Feature",
      "properties": {
        "id": 221,
        "osm_id": 628634429,
        "name": "C V Raman Nagar",
        "type": "suburb",
        "z_order": 3,
        "population": null
      },
      "geometry": {
        "type": "Point",
        "coordinates": [
          77.66497669293472,
          12.985647776001485
        ]
      }
    },
    {
      "type": "Feature",
      "properties": {
        "id": 222,
        "osm_id": 648975553,
        "name": "Cottonpete",
        "type": "locality",
        "z_order": 1,
        "population": null
      },
      "geometry": {
        "type": "Point",
        "coordinates": [
          77.56516683396325,
          12.96530858503675
        ]
      }
    },
    {
      "type": "Feature",
      "properties": {
        "id": 223,
        "osm_id": 652356552,
        "name": "Prakruthi Township",
        "type": "locality",
        "z_order": 1,
        "population": null
      },
      "geometry": {
        "type": "Point",
        "coordinates": [
          77.65215321926956,
          13.030876693163833
        ]
      }
    },
    {
      "type": "Feature",
      "properties": {
        "id": 224,
        "osm_id": 665045361,
        "name": "High Grounds",
        "type": "suburb",
        "z_order": 3,
        "population": null
      },
      "geometry": {
        "type": "Point",
        "coordinates": [
          77.58212074187422,
          12.98812831642664
        ]
      }
    },
    {
      "type": "Feature",
      "properties": {
        "id": 225,
        "osm_id": 666849453,
        "name": "L.R. Nagar 1st Stage",
        "type": "neighbourhood",
        "z_order": 2,
        "population": null
      },
      "geometry": {
        "type": "Point",
        "coordinates": [
          77.61566922550719,
          12.949845482424195
        ]
      }
    },
    {
      "type": "Feature",
      "properties": {
        "id": 226,
        "osm_id": 666849455,
        "name": "L.R. Nagar 2nd Stage",
        "type": "neighbourhood",
        "z_order": 2,
        "population": null
      },
      "geometry": {
        "type": "Point",
        "coordinates": [
          77.61745524143537,
          12.949693434700633
        ]
      }
    },
    {
      "type": "Feature",
      "properties": {
        "id": 227,
        "osm_id": 666849457,
        "name": "Ambedkar Nagar",
        "type": "neighbourhood",
        "z_order": 2,
        "population": null
      },
      "geometry": {
        "type": "Point",
        "coordinates": [
          77.61848722135414,
          12.9490850761683
        ]
      }
    },
    {
      "type": "Feature",
      "properties": {
        "id": 228,
        "osm_id": 679886682,
        "name": "Goripalya",
        "type": "suburb",
        "z_order": 3,
        "population": null
      },
      "geometry": {
        "type": "Point",
        "coordinates": [
          77.55455308143172,
          12.964606097731775
        ]
      }
    },
    {
      "type": "Feature",
      "properties": {
        "id": 229,
        "osm_id": 683061164,
        "name": "Hosahalli",
        "type": "locality",
        "z_order": 1,
        "population": null
      },
      "geometry": {
        "type": "Point",
        "coordinates": [
          77.54277969259613,
          12.969068539162322
        ]
      }
    },
    {
      "type": "Feature",
      "properties": {
        "id": 230,
        "osm_id": 699684267,
        "name": "Kasturibai Nagar",
        "type": "suburb",
        "z_order": 3,
        "population": null
      },
      "geometry": {
        "type": "Point",
        "coordinates": [
          77.55127273980571,
          12.954105081797932
        ]
      }
    },
    {
      "type": "Feature",
      "properties": {
        "id": 231,
        "osm_id": 699684156,
        "name": "Hosakerehalli",
        "type": "suburb",
        "z_order": 3,
        "population": null
      },
      "geometry": {
        "type": "Point",
        "coordinates": [
          77.53783319625728,
          12.930188075463603
        ]
      }
    },
    {
      "type": "Feature",
      "properties": {
        "id": 232,
        "osm_id": 710722699,
        "name": "Domlur 2nd Stage",
        "type": "neighbourhood",
        "z_order": 2,
        "population": null
      },
      "geometry": {
        "type": "Point",
        "coordinates": [
          77.63836758693913,
          12.964066386986444
        ]
      }
    },
    {
      "type": "Feature",
      "properties": {
        "id": 233,
        "osm_id": 695074660,
        "name": "Hilalige",
        "type": "village",
        "z_order": 5,
        "population": null
      },
      "geometry": {
        "type": "Point",
        "coordinates": [
          77.70810527279986,
          12.817573434471
        ]
      }
    },
    {
      "type": "Feature",
      "properties": {
        "id": 234,
        "osm_id": 695071598,
        "name": "Munekolala",
        "type": "suburb",
        "z_order": 3,
        "population": null
      },
      "geometry": {
        "type": "Point",
        "coordinates": [
          77.70900263935363,
          12.948073380455241
        ]
      }
    },
    {
      "type": "Feature",
      "properties": {
        "id": 235,
        "osm_id": 695071972,
        "name": "AECS Layout",
        "type": "suburb",
        "z_order": 3,
        "population": null
      },
      "geometry": {
        "type": "Point",
        "coordinates": [
          77.71278748773165,
          12.964073595423173
        ]
      }
    },
    {
      "type": "Feature",
      "properties": {
        "id": 236,
        "osm_id": 695119369,
        "name": "Huskur",
        "type": "suburb",
        "z_order": 3,
        "population": null
      },
      "geometry": {
        "type": "Point",
        "coordinates": [
          77.70710187517096,
          12.860767393180879
        ]
      }
    },
    {
      "type": "Feature",
      "properties": {
        "id": 237,
        "osm_id": 718385669,
        "name": "Vannarapete",
        "type": "neighbourhood",
        "z_order": 2,
        "population": null
      },
      "geometry": {
        "type": "Point",
        "coordinates": [
          77.61763746401039,
          12.959993117320238
        ]
      }
    },
    {
      "type": "Feature",
      "properties": {
        "id": 238,
        "osm_id": 725239090,
        "name": "Rajajinagar 5th Block",
        "type": "neighbourhood",
        "z_order": 2,
        "population": null
      },
      "geometry": {
        "type": "Point",
        "coordinates": [
          77.5542425319191,
          12.97835392767891
        ]
      }
    },
    {
      "type": "Feature",
      "properties": {
        "id": 239,
        "osm_id": 733519844,
        "name": "Deepanjali Nagar",
        "type": "locality",
        "z_order": 1,
        "population": null
      },
      "geometry": {
        "type": "Point",
        "coordinates": [
          77.53564694445254,
          12.9526938207606
        ]
      }
    },
    {
      "type": "Feature",
      "properties": {
        "id": 240,
        "osm_id": 733519845,
        "name": "Bapuji Nagar",
        "type": "locality",
        "z_order": 1,
        "population": null
      },
      "geometry": {
        "type": "Point",
        "coordinates": [
          77.53969666097082,
          12.95432108344272
        ]
      }
    },
    {
      "type": "Feature",
      "properties": {
        "id": 241,
        "osm_id": 733519847,
        "name": "Ganapathy Nagar",
        "type": "locality",
        "z_order": 1,
        "population": null
      },
      "geometry": {
        "type": "Point",
        "coordinates": [
          77.53962558243194,
          12.946341092526382
        ]
      }
    },
    {
      "type": "Feature",
      "properties": {
        "id": 242,
        "osm_id": 733519855,
        "name": "Girinagar",
        "type": "suburb",
        "z_order": 3,
        "population": null
      },
      "geometry": {
        "type": "Point",
        "coordinates": [
          77.54449949148926,
          12.940143848595993
        ]
      }
    },
    {
      "type": "Feature",
      "properties": {
        "id": 243,
        "osm_id": 733519858,
        "name": "Byataranyapura",
        "type": "suburb",
        "z_order": 3,
        "population": null
      },
      "geometry": {
        "type": "Point",
        "coordinates": [
          77.54135912764626,
          12.947632492348305
        ]
      }
    },
    {
      "type": "Feature",
      "properties": {
        "id": 244,
        "osm_id": 733519862,
        "name": "KHR Colony",
        "type": "locality",
        "z_order": 1,
        "population": null
      },
      "geometry": {
        "type": "Point",
        "coordinates": [
          77.53545156228961,
          12.946687265127451
        ]
      }
    },
    {
      "type": "Feature",
      "properties": {
        "id": 245,
        "osm_id": 769260893,
        "name": "Someshwaranagar",
        "type": "suburb",
        "z_order": 3,
        "population": null
      },
      "geometry": {
        "type": "Point",
        "coordinates": [
          77.59213451777663,
          12.942091467617416
        ]
      }
    },
    {
      "type": "Feature",
      "properties": {
        "id": 246,
        "osm_id": 736207253,
        "name": "Defence Colony",
        "type": "neighbourhood",
        "z_order": 2,
        "population": null
      },
      "geometry": {
        "type": "Point",
        "coordinates": [
          77.64353142602727,
          12.976170944816403
        ]
      }
    },
    {
      "type": "Feature",
      "properties": {
        "id": 247,
        "osm_id": 821795981,
        "name": "Nanjappa Garden",
        "type": "locality",
        "z_order": 1,
        "population": null
      },
      "geometry": {
        "type": "Point",
        "coordinates": [
          77.65041204652334,
          13.023407663064944
        ]
      }
    },
    {
      "type": "Feature",
      "properties": {
        "id": 248,
        "osm_id": 841805674,
        "name": "Katriguppe",
        "type": "suburb",
        "z_order": 3,
        "population": null
      },
      "geometry": {
        "type": "Point",
        "coordinates": [
          77.5488834783061,
          12.92809519806022
        ]
      }
    },
    {
      "type": "Feature",
      "properties": {
        "id": 249,
        "osm_id": 833667753,
        "name": "Mulluru",
        "type": "village",
        "z_order": 5,
        "population": null
      },
      "geometry": {
        "type": "Point",
        "coordinates": [
          77.72513076216399,
          12.904873135317985
        ]
      }
    },
    {
      "type": "Feature",
      "properties": {
        "id": 250,
        "osm_id": 833667754,
        "name": "Kachamaranahalli",
        "type": "village",
        "z_order": 5,
        "population": null
      },
      "geometry": {
        "type": "Point",
        "coordinates": [
          77.73278033845725,
          12.912329424924053
        ]
      }
    },
    {
      "type": "Feature",
      "properties": {
        "id": 251,
        "osm_id": 833667755,
        "name": "Gunjuru",
        "type": "village",
        "z_order": 5,
        "population": null
      },
      "geometry": {
        "type": "Point",
        "coordinates": [
          77.73466869742316,
          12.920496667557302
        ]
      }
    },
    {
      "type": "Feature",
      "properties": {
        "id": 252,
        "osm_id": 833667757,
        "name": "Sulikunte",
        "type": "village",
        "z_order": 5,
        "population": null
      },
      "geometry": {
        "type": "Point",
        "coordinates": [
          77.72921844870363,
          12.888181832433418
        ]
      }
    },
    {
      "type": "Feature",
      "properties": {
        "id": 253,
        "osm_id": 833667966,
        "name": "Balagere",
        "type": "village",
        "z_order": 5,
        "population": null
      },
      "geometry": {
        "type": "Point",
        "coordinates": [
          77.72807046324499,
          12.937724244606896
        ]
      }
    },
    {
      "type": "Feature",
      "properties": {
        "id": 254,
        "osm_id": 833667967,
        "name": "Varthur",
        "type": "village",
        "z_order": 5,
        "population": null
      },
      "geometry": {
        "type": "Point",
        "coordinates": [
          77.74699369930659,
          12.940615163011444
        ]
      }
    },
    {
      "type": "Feature",
      "properties": {
        "id": 255,
        "osm_id": 833668150,
        "name": "Kodati",
        "type": "village",
        "z_order": 5,
        "population": null
      },
      "geometry": {
        "type": "Point",
        "coordinates": [
          77.71589859873255,
          12.887261583283987
        ]
      }
    },
    {
      "type": "Feature",
      "properties": {
        "id": 256,
        "osm_id": 841805570,
        "name": "Bhuvaneshwari Nagar",
        "type": "suburb",
        "z_order": 3,
        "population": null
      },
      "geometry": {
        "type": "Point",
        "coordinates": [
          77.54937868114558,
          12.923249787473651
        ]
      }
    },
    {
      "type": "Feature",
      "properties": {
        "id": 257,
        "osm_id": 841805600,
        "name": "Ittamadu",
        "type": "suburb",
        "z_order": 3,
        "population": null
      },
      "geometry": {
        "type": "Point",
        "coordinates": [
          77.54445724669728,
          12.92500462272207
        ]
      }
    },
    {
      "type": "Feature",
      "properties": {
        "id": 258,
        "osm_id": 841805641,
        "name": "AGS Layout",
        "type": "suburb",
        "z_order": 3,
        "population": null
      },
      "geometry": {
        "type": "Point",
        "coordinates": [
          77.53404977280286,
          12.912765032431963
        ]
      }
    },
    {
      "type": "Feature",
      "properties": {
        "id": 259,
        "osm_id": 841805643,
        "name": "Hanumantha Nagar",
        "type": "suburb",
        "z_order": 3,
        "population": null
      },
      "geometry": {
        "type": "Point",
        "coordinates": [
          77.56354284022336,
          12.94064097927324
        ]
      }
    },
    {
      "type": "Feature",
      "properties": {
        "id": 260,
        "osm_id": 850751602,
        "name": "HMT Layout",
        "type": "locality",
        "z_order": 1,
        "population": null
      },
      "geometry": {
        "type": "Point",
        "coordinates": [
          77.59212504622599,
          13.027652342651038
        ]
      }
    },
    {
      "type": "Feature",
      "properties": {
        "id": 261,
        "osm_id": 850751624,
        "name": "VV Nagar",
        "type": "locality",
        "z_order": 1,
        "population": null
      },
      "geometry": {
        "type": "Point",
        "coordinates": [
          77.59507103373443,
          13.027947134185638
        ]
      }
    },
    {
      "type": "Feature",
      "properties": {
        "id": 262,
        "osm_id": 857189302,
        "name": "St Thomastown",
        "type": "suburb",
        "z_order": 3,
        "population": null
      },
      "geometry": {
        "type": "Point",
        "coordinates": [
          77.62240701837322,
          13.006557271658124
        ]
      }
    },
    {
      "type": "Feature",
      "properties": {
        "id": 263,
        "osm_id": 951469149,
        "name": "Avalahalli",
        "type": "suburb",
        "z_order": 3,
        "population": null
      },
      "geometry": {
        "type": "Point",
        "coordinates": [
          77.54020435284603,
          12.943745552389657
        ]
      }
    },
    {
      "type": "Feature",
      "properties": {
        "id": 264,
        "osm_id": 955651979,
        "name": "Ganganahalli",
        "type": "village",
        "z_order": 5,
        "population": null
      },
      "geometry": {
        "type": "Point",
        "coordinates": [
          77.60371939760982,
          13.145313140811167
        ]
      }
    },
    {
      "type": "Feature",
      "properties": {
        "id": 265,
        "osm_id": 961374022,
        "name": "Jagadish Nagar",
        "type": "neighbourhood",
        "z_order": 2,
        "population": null
      },
      "geometry": {
        "type": "Point",
        "coordinates": [
          77.66482204682119,
          12.968254488726101
        ]
      }
    },
    {
      "type": "Feature",
      "properties": {
        "id": 266,
        "osm_id": 959499304,
        "name": "Sector A",
        "type": "locality",
        "z_order": 1,
        "population": null
      },
      "geometry": {
        "type": "Point",
        "coordinates": [
          77.58645292852945,
          13.096843360786806
        ]
      }
    },
    {
      "type": "Feature",
      "properties": {
        "id": 267,
        "osm_id": 959499372,
        "name": "Yelahanka New Town",
        "type": "suburb",
        "z_order": 3,
        "population": null
      },
      "geometry": {
        "type": "Point",
        "coordinates": [
          77.5811888418794,
          13.097803843071432
        ]
      }
    },
    {
      "type": "Feature",
      "properties": {
        "id": 268,
        "osm_id": 959499462,
        "name": "Sector B",
        "type": "locality",
        "z_order": 1,
        "population": null
      },
      "geometry": {
        "type": "Point",
        "coordinates": [
          77.58180097226818,
          13.098281024819102
        ]
      }
    },
    {
      "type": "Feature",
      "properties": {
        "id": 269,
        "osm_id": 959502436,
        "name": "4th Phase",
        "type": "neighbourhood",
        "z_order": 2,
        "population": null
      },